{
  "results":"ok",
  "response_message":"",
  "data":
    {
      "recommendations":[
        {
          "id":12345,
          "category":"Food",
          "type":"Mexican",
          "title":"Flamingo's Cafe",
          "subtitle":"",
          "description":"",
          "address":"122 Inola", 
          "city":"Lancaster", 
          "state":"CA",
          "zip":"91452",
          "latitude":"-129.00",
          "longitude":"22.123",
          "starts_at":"12-01-12 9:00",
          "rating":4.5,
          "is_favorite":true        
          },
          
          {
            "id":12346,
            "category":"Entertainment",
            "type":"Movie",
            "title":"Paranormal Activity", 
            "subtitle":"@The Metreon",
            "address":"122 Inola", 
            "city":"Lancaster", 
            "state":"CA",
            "zip":"91452",
            "latitude":"-129.00",
            "longitude":"22.123",
            "starts_at":"12-01-12 9:00",
            "rating":5,
            "is_favorite":false         
            },
            
            {
              "id":12347,
              "category":"Food",
              "type":"American",
              "title":"Jose's Cafe", 
              "subtitle":"",
              "address":"122 Inola", 
              "city":"Lancaster", 
              "state":"CA",
              "zip":"91452",
              "latitude":"-129.00",
              "longitude":"22.123",
              "starts_at":"12-01-12 9:00",
              "rating":3,
              "is_favorite":false       
              },
      ]
    }
}